map_id,map_name,stop_id,stop_name,lines,xcoord,ycoord,id
ad29dfe0,Expansion 1,remix-fbb0606c-eea1-4b05-a894-66c37d7621cf,Untitled Stop,Grey Route (Inbound),-86.45485871,42.1127311,1
ad29dfe0,Expansion 1,remix-7026457e-6681-4cd4-9cfd-b0dba941fd90,Untitled Stop,Grey Route (Inbound),-86.45603637,42.10961824,2
ad29dfe0,Expansion 1,remix-a5be2c85-e1fb-4e5d-be7d-f5c1d7f363e4,Untitled Stop,Grey Route (Inbound),-86.45597063,42.10605625,3
ad29dfe0,Expansion 1,remix-2e7ff5e7-8600-44ee-b8d6-bc4478568546,Untitled Stop,Grey Route (Inbound),-86.45595697,42.10248865,4
ad29dfe0,Expansion 1,remix-5e824503-e5e8-4076-a895-83aeec5fcb53,Untitled Stop,Grey Route (Inbound),-86.45592701,42.09892301,5
ad29dfe0,Expansion 1,remix-df1b26cd-0871-4e68-97eb-7eda03d5057e,Untitled Stop,Grey Route (Inbound),-86.4558715,42.09535798,6
ad29dfe0,Expansion 1,remix-352cf7ec-749d-441c-b35f-81e61b79b8b9,Untitled Stop,Grey Route (Inbound),-86.45586725,42.09179094,7
ad29dfe0,Expansion 1,remix-bf562f33-b970-403d-83b9-1eb2d43d1d77,Untitled Stop,Grey Route (Inbound),-86.45584068,42.08822508,8
ad29dfe0,Expansion 1,remix-6092e543-5702-4154-845e-a72c6bed874c,Untitled Stop,Grey Route (Inbound),-86.45265302,42.08716644,9
ad29dfe0,Expansion 1,remix-d4c748ec-bd84-4d5c-badd-e1c024b53c22,Untitled Stop,Grey Route (Inbound),-86.44784762,42.08716645,10
ad29dfe0,Expansion 1,remix-e5810a60-16f8-44fb-a626-a852bf9022f3,Untitled Stop,Grey Route (Inbound),-86.44304224,42.08718644,11
ad29dfe0,Expansion 1,remix-00752474-71f4-4623-9dcc-781755aebe20,Untitled Stop,Grey Route (Inbound),-86.43823679,42.08718644,12
ad29dfe0,Expansion 1,remix-c1953af4-f90f-46a1-9c97-b1d9bcf416df,Untitled Stop,Grey Route (Inbound),-86.43343278,42.08716644,13
ad29dfe0,Expansion 1,remix-7f3b97a4-cbba-4812-bf58-2aaa77e9e3eb,Untitled Stop,Grey Route (Inbound),-86.42877371,42.08749852,14
ad29dfe0,Expansion 1,remix-681928ce-0b61-4a99-a7af-a8b98b78f7fa,Untitled Stop,Grey Route (Inbound),-86.4246146,42.08927653,15
ad29dfe0,Expansion 1,remix-f4096342-aae1-47ec-aa57-aa7846a4005a,Untitled Stop,Grey Route (Inbound),-86.42014902,42.09059002,16
ad29dfe0,Expansion 1,remix-36e6ba68-761f-461e-9705-70496cb3d696,Untitled Stop,Grey Route (Inbound),-86.41734233,42.09200637,17
ad29dfe0,Expansion 1,remix-6023bc4c-1d47-4d15-8f78-598a5b4b20d6,Untitled Stop,Grey Route (Inbound),-86.41737302,42.09557285,18
ad29dfe0,Expansion 1,remix-d1a48293-5940-4eb2-b987-fed2b124a76c,Untitled Stop,Grey Route (Inbound),-86.41720674,42.09725839,19
ad29dfe0,Expansion 1,remix-aabe4e3c-384b-41df-8185-79d7ebb9cd12,Untitled Stop,Grey Route (Inbound),-86.41715652,42.09369232,20
ad29dfe0,Expansion 1,remix-f6f0b443-7934-49ec-83c2-3dbffdceb787,Untitled Stop,Grey Route (Inbound),-86.41659164,42.09068236,21
ad29dfe0,Expansion 1,remix-972e8647-78dd-4ba3-9054-405c5b1d29f3,Untitled Stop,Grey Route (Inbound),-86.41178532,42.09073644,22
ad29dfe0,Expansion 1,remix-11d85703-80dd-4def-9c38-8660ee2fca1d,Untitled Stop,Grey Route (Inbound),-86.40697265,42.09063114,23
ad29dfe0,Expansion 1,remix-6be6aae7-7399-4d5e-9242-4da62693881f,Untitled Stop,Grey Route (Inbound),-86.40221797,42.09011221,24
ad29dfe0,Expansion 1,remix-81a93905-8a8d-4cc1-b79f-87ee097eefec,Untitled Stop,Grey Route (Inbound),-86.39745668,42.08974302,25
ad29dfe0,Expansion 1,remix-22b905fa-fd7e-429c-a061-b9c288fe1244,Untitled Stop,Grey Route (Inbound),-86.39264638,42.08963453,26
ad29dfe0,Expansion 1,remix-ebd906a6-f71b-4bac-91b0-83164a36773b,Untitled Stop,Grey Route (Inbound),-86.39237768,42.09286149,27
ad29dfe0,Expansion 1,remix-f9e24bfb-b7e5-4614-a482-8238084da7b8,Untitled Stop,Grey Route (Inbound),-86.39252628,42.0961741,28
ad29dfe0,Expansion 1,remix-420783db-aed0-4154-b6b5-7dcdbe2a3062,Untitled Stop,Grey Route (Inbound),-86.39265604,42.09287184,29
ad29dfe0,Expansion 1,remix-a59bd276-3eae-4eda-b46d-ced91040d749,Untitled Stop,Grey Route (Inbound),-86.39286186,42.08949787,30
ad29dfe0,Expansion 1,remix-167f9a1f-8950-42ad-b126-3a8c8068cee3,Untitled Stop,Grey Route (Inbound),-86.39765447,42.08959236,31
ad29dfe0,Expansion 1,remix-c6685a44-4a7d-42ac-a50c-210744a454c9,Untitled Stop,Grey Route (Inbound),-86.4024406,42.08998202,32
ad29dfe0,Expansion 1,remix-716be396-ccd3-465e-a788-9815755c8b71,Untitled Stop,Grey Route (Inbound),-86.40719204,42.09049908,33
ad29dfe0,Expansion 1,remix-3f940e3d-0a71-425e-a1e3-428f46f85ed3,Untitled Stop,Grey Route (Inbound),-86.41187699,42.09066,34
ad29dfe0,Expansion 1,remix-716be396-ccd3-465e-a788-9815755c8b71,Untitled Stop,Grey Route (Inbound),-86.40719204,42.09049908,35
ad29dfe0,Expansion 1,remix-c6685a44-4a7d-42ac-a50c-210744a454c9,Untitled Stop,Grey Route (Inbound),-86.4024406,42.08998202,36
ad29dfe0,Expansion 1,remix-167f9a1f-8950-42ad-b126-3a8c8068cee3,Untitled Stop,Grey Route (Inbound),-86.39765447,42.08959236,37
ad29dfe0,Expansion 1,remix-a59bd276-3eae-4eda-b46d-ced91040d749,Untitled Stop,Grey Route (Inbound),-86.39286186,42.08949787,38
ad29dfe0,Expansion 1,remix-420783db-aed0-4154-b6b5-7dcdbe2a3062,Untitled Stop,Grey Route (Inbound),-86.39265604,42.09287184,39
ad29dfe0,Expansion 1,remix-f9e24bfb-b7e5-4614-a482-8238084da7b8,Untitled Stop,Grey Route (Inbound),-86.39252628,42.0961741,40
ad29dfe0,Expansion 1,remix-ebd906a6-f71b-4bac-91b0-83164a36773b,Untitled Stop,Grey Route (Inbound),-86.39237768,42.09286149,41
ad29dfe0,Expansion 1,remix-22b905fa-fd7e-429c-a061-b9c288fe1244,Untitled Stop,Grey Route (Inbound),-86.39264638,42.08963453,42
ad29dfe0,Expansion 1,remix-81a93905-8a8d-4cc1-b79f-87ee097eefec,Untitled Stop,Grey Route (Inbound),-86.39745668,42.08974302,43
ad29dfe0,Expansion 1,remix-6be6aae7-7399-4d5e-9242-4da62693881f,Untitled Stop,Grey Route (Inbound),-86.40221797,42.09011221,44
ad29dfe0,Expansion 1,remix-11d85703-80dd-4def-9c38-8660ee2fca1d,Untitled Stop,Grey Route (Inbound),-86.40697265,42.09063114,45
ad29dfe0,Expansion 1,remix-972e8647-78dd-4ba3-9054-405c5b1d29f3,Untitled Stop,Grey Route (Inbound),-86.41178532,42.09073644,46
ad29dfe0,Expansion 1,remix-f6f0b443-7934-49ec-83c2-3dbffdceb787,Untitled Stop,Grey Route (Inbound),-86.41659164,42.09068236,47
ad29dfe0,Expansion 1,remix-aabe4e3c-384b-41df-8185-79d7ebb9cd12,Untitled Stop,Grey Route (Inbound),-86.41715652,42.09369232,48
ad29dfe0,Expansion 1,remix-d1a48293-5940-4eb2-b987-fed2b124a76c,Untitled Stop,Grey Route (Inbound),-86.41720674,42.09725839,49
ad29dfe0,Expansion 1,remix-6023bc4c-1d47-4d15-8f78-598a5b4b20d6,Untitled Stop,Grey Route (Inbound),-86.41737302,42.09557285,50
ad29dfe0,Expansion 1,remix-36e6ba68-761f-461e-9705-70496cb3d696,Untitled Stop,Grey Route (Inbound),-86.41734233,42.09200637,51
ad29dfe0,Expansion 1,remix-f4096342-aae1-47ec-aa57-aa7846a4005a,Untitled Stop,Grey Route (Inbound),-86.42014902,42.09059002,52
ad29dfe0,Expansion 1,remix-681928ce-0b61-4a99-a7af-a8b98b78f7fa,Untitled Stop,Grey Route (Inbound),-86.4246146,42.08927653,53
ad29dfe0,Expansion 1,remix-7f3b97a4-cbba-4812-bf58-2aaa77e9e3eb,Untitled Stop,Grey Route (Inbound),-86.42877371,42.08749852,54
ad29dfe0,Expansion 1,remix-c1953af4-f90f-46a1-9c97-b1d9bcf416df,Untitled Stop,Grey Route (Inbound),-86.43343278,42.08716644,55
ad29dfe0,Expansion 1,remix-00752474-71f4-4623-9dcc-781755aebe20,Untitled Stop,Grey Route (Inbound),-86.43823679,42.08718644,56
ad29dfe0,Expansion 1,remix-e5810a60-16f8-44fb-a626-a852bf9022f3,Untitled Stop,Grey Route (Inbound),-86.44304224,42.08718644,57
ad29dfe0,Expansion 1,remix-d4c748ec-bd84-4d5c-badd-e1c024b53c22,Untitled Stop,Grey Route (Inbound),-86.44784762,42.08716645,58
ad29dfe0,Expansion 1,remix-6092e543-5702-4154-845e-a72c6bed874c,Untitled Stop,Grey Route (Inbound),-86.45265302,42.08716644,59
ad29dfe0,Expansion 1,remix-bf562f33-b970-403d-83b9-1eb2d43d1d77,Untitled Stop,Grey Route (Inbound),-86.45584068,42.08822508,60
ad29dfe0,Expansion 1,remix-352cf7ec-749d-441c-b35f-81e61b79b8b9,Untitled Stop,Grey Route (Inbound),-86.45586725,42.09179094,61
ad29dfe0,Expansion 1,remix-df1b26cd-0871-4e68-97eb-7eda03d5057e,Untitled Stop,Grey Route (Inbound),-86.4558715,42.09535798,62
ad29dfe0,Expansion 1,remix-5e824503-e5e8-4076-a895-83aeec5fcb53,Untitled Stop,Grey Route (Inbound),-86.45592701,42.09892301,63
ad29dfe0,Expansion 1,remix-2e7ff5e7-8600-44ee-b8d6-bc4478568546,Untitled Stop,Grey Route (Inbound),-86.45595697,42.10248865,64
ad29dfe0,Expansion 1,remix-a5be2c85-e1fb-4e5d-be7d-f5c1d7f363e4,Untitled Stop,Grey Route (Inbound),-86.45597063,42.10605625,65
ad29dfe0,Expansion 1,remix-7026457e-6681-4cd4-9cfd-b0dba941fd90,Untitled Stop,Grey Route (Inbound),-86.45603637,42.10961824,66
ad29dfe0,Expansion 1,remix-fbb0606c-eea1-4b05-a894-66c37d7621cf,Untitled Stop,Grey Route (Inbound),-86.45485871,42.1127311,67
