map_id,map_name,stop_id,stop_name,lines,xcoord,ycoord,id
26a28234,Constrained 1,remix-d4bce925-b256-4eda-a3c7-7979dfe011f6,Untitled Stop,Yellow Route (Inbound),-86.45560357,42.11694943,1
26a28234,Constrained 1,remix-27453f52-443f-4632-804a-a096fdafd267,Untitled Stop,Yellow Route (Inbound),-86.45264695,42.1162,2
26a28234,Constrained 1,remix-3e70b6a6-cd42-42f6-a192-449f6011f693,Untitled Stop,Yellow Route (Inbound),-86.45159387,42.11017199,3
26a28234,Constrained 1,remix-f4d4676c-ea17-4452-83f2-6c9818b77064,Untitled Stop,Yellow Route (Inbound),-86.45156382,42.10675842,4
26a28234,Constrained 1,remix-1a9c4c14-0c23-4d7a-be2e-40db6b5fa421,Untitled Stop,Yellow Route (Inbound),-86.45151097,42.10334528,5
26a28234,Constrained 1,remix-f992ea15-3f37-438f-b808-bc10cbfaf560,Untitled Stop,Yellow Route (Inbound),-86.44433524,42.10153356,6
26a28234,Constrained 1,remix-8dc84f0e-c4d6-4635-9cd5-6683d8f47143,Untitled Stop,Yellow Route (Inbound),-86.44153368,42.10211281,7
26a28234,Constrained 1,remix-a74abdd2-4710-486e-a6a2-4c8125721f6f,Untitled Stop,Yellow Route (Inbound),-86.44168659,42.09859347,8
26a28234,Constrained 1,remix-233357f4-aa0b-4973-a115-09e6524ab39a,Untitled Stop,Yellow Route (Inbound),-86.44169926,42.09507704,9
26a28234,Constrained 1,remix-6d02a1cb-9177-47ab-8faa-d018728850e9,Untitled Stop,Yellow Route (Inbound),-86.44166372,42.09156069,10
26a28234,Constrained 1,remix-3124034d-5130-4306-b358-769b53421860,Untitled Stop,Yellow Route (Inbound),-86.44163476,42.08804268,11
26a28234,Constrained 1,remix-3b77be91-9257-430b-956d-6990556394b6,Untitled Stop,Yellow Route (Inbound),-86.44161277,42.0845262,12
26a28234,Constrained 1,remix-dc82acf0-b1a0-4688-a379-b5d1f3a0193f,Untitled Stop,Yellow Route (Inbound),-86.44154583,42.08101049,13
26a28234,Constrained 1,remix-3f4faf29-fee5-4fa4-a267-4165d0b744fa,Untitled Stop,Yellow Route (Inbound),-86.44148608,42.07749343,14
26a28234,Constrained 1,remix-77a28657-59d5-4239-a56b-d86fe9c383b7,Untitled Stop,Yellow Route (Inbound),-86.43959352,42.07486693,15
26a28234,Constrained 1,remix-6a090618-afcc-4843-bd26-1c4e7d9f1bdd,Untitled Stop,Yellow Route (Inbound),-86.43643431,42.07547487,16
26a28234,Constrained 1,remix-bf24ebea-1056-4c42-bca2-3a3ae5a382d3,Untitled Stop,Yellow Route (Inbound),-86.43647474,42.07899181,17
26a28234,Constrained 1,remix-8fe25393-6d06-436f-bd80-697b5d0cc7a7,Untitled Stop,Yellow Route (Inbound),-86.436507,42.08250781,18
26a28234,Constrained 1,remix-ff88b436-ab8a-4f59-9642-0eec6d4b259f,Untitled Stop,Yellow Route (Inbound),-86.43649215,42.0860179,19
26a28234,Constrained 1,remix-4b891036-5c24-41d8-9ae9-adc531884b8e,Untitled Stop,Yellow Route (Inbound),-86.43626457,42.08953065,20
26a28234,Constrained 1,remix-5319c52f-8d24-432a-8438-4f68ccaaa192,Untitled Stop,Yellow Route (Inbound),-86.43556617,42.0930012,21
26a28234,Constrained 1,remix-9191f282-27c7-4e97-86ae-7bfffda34b07,Untitled Stop,Yellow Route (Inbound),-86.43480862,42.09646925,22
26a28234,Constrained 1,remix-6417190d-a8b9-4374-829c-1e7a38d25e2c,Untitled Stop,Yellow Route (Inbound),-86.4342806,42.09997048,23
26a28234,Constrained 1,remix-634fe360-b341-44ef-8d8b-1a4bff76a784,Untitled Stop,Yellow Route (Inbound),-86.43576339,42.10426859,24
26a28234,Constrained 1,remix-ae965ef2-8fce-429c-91ea-8968aa2fe2de,Untitled Stop,Yellow Route (Inbound),-86.43542896,42.10728501,25
26a28234,Constrained 1,remix-bcdeb00e-8f0c-4063-a660-1d79fd94b50e,Untitled Stop,Yellow Route (Inbound),-86.43714681,42.10894504,26
26a28234,Constrained 1,remix-070c600a-2f13-4bca-a73e-3581e39e55eb,Untitled Stop,Yellow Route (Inbound),-86.44041481,42.10946846,27
26a28234,Constrained 1,remix-927836d2-2a27-4932-b178-10a626421813,McCord St. & Nate Wells Dr. at Boys & Girls Club,Yellow Route (Inbound),-86.44042717,42.11256937,28
26a28234,Constrained 1,remix-e3ada179-d830-4161-8061-764d0b785b23,Untitled Stop,Yellow Route (Inbound),-86.44039695,42.1161099,29
26a28234,Constrained 1,remix-ea87acb9-06bf-4c6c-9926-3bba29532eb2,Untitled Stop,Yellow Route (Inbound),-86.43577024,42.11605457,30
26a28234,Constrained 1,remix-8df4c29b-0771-40e9-95a1-0e5bd3cc3cf9,Untitled Stop,Yellow Route (Inbound),-86.43099737,42.11600455,31
26a28234,Constrained 1,remix-881156b2-f209-4fc0-87df-ebdc4ca0d567,Untitled Stop,Yellow Route (Inbound),-86.42622223,42.11597356,32
26a28234,Constrained 1,remix-d6da0354-7743-4484-99e7-def8a7447029,Untitled Stop,Yellow Route (Inbound),-86.42527694,42.11888772,33
26a28234,Constrained 1,remix-a16053a4-dec3-4526-a98b-25cfb10d541b,Untitled Stop,Yellow Route (Inbound),-86.42528448,42.12242974,34
26a28234,Constrained 1,remix-09ffeb95-06e3-4ba7-b80d-715b059b6f72,Untitled Stop,Yellow Route (Inbound),-86.43003353,42.12235137,35
26a28234,Constrained 1,remix-0161a7f8-1923-4d68-80a6-e6fa0a503a64,Untitled Stop,Yellow Route (Inbound),-86.43433359,42.12078134,36
26a28234,Constrained 1,remix-e5b2283a-20f0-44db-a1ab-308131d91dc4,Forest Ave. & Edgecumbe Ave.,Yellow Route (Inbound),-86.43895004,42.12161858,37
26a28234,Constrained 1,remix-3cf52f54-8952-4388-96cc-5802b9f14c82,Untitled Stop,Yellow Route (Inbound),-86.43805694,42.11915009,37
26a28234,Constrained 1,remix-85640fcb-5ed6-4931-81d2-8c8d59543cc3,Untitled Stop,Yellow Route (Inbound),-86.44143343,42.12355644,39
26a28234,Constrained 1,remix-14f67d16-6969-47fc-b7d1-4e6722af92d3,Untitled Stop,Yellow Route (Inbound),-86.44627002,42.12359644,40
26a28234,Constrained 1,remix-eddfade1-03ab-4cae-9313-0b7c7c0d44a9,Untitled Stop,Yellow Route (Inbound),-86.44822986,42.12591142,41
26a28234,Constrained 1,remix-2040e302-8e51-4192-bf8e-67e4501af7f9,Untitled Stop,Yellow Route (Inbound),-86.4476521,42.12943261,42
26a28234,Constrained 1,remix-4adabf30-371d-4d21-b1ff-0d0e27bb7b43,Collins Ave. at Benton Manor,Yellow Route (Inbound),-86.4519297,42.13272975,43
26a28234,Constrained 1,remix-d9a7b3f9-500b-4367-bc0e-e34004bd2261,Untitled Stop,Yellow Route (Inbound),-86.44709436,42.13270644,43
26a28234,Constrained 1,remix-48a2582c-f719-426e-ab84-ca070cdb7911,Untitled Stop,Yellow Route (Inbound),-86.45633202,42.13259189,45
26a28234,Constrained 1,remix-f90b525c-c06e-48f7-97fe-04832fbf8b92,Untitled Stop,Yellow Route (Inbound),-86.45629629,42.12909331,46
26a28234,Constrained 1,remix-1705e8d1-b449-4931-a99c-d3ea685d1a49,Untitled Stop,Yellow Route (Inbound),-86.45548731,42.12596056,47
26a28234,Constrained 1,remix-e557760c-4e67-4179-80b3-3ea7365c3f57,Untitled Stop,Yellow Route (Inbound),-86.4548032,42.12284518,49
26a28234,Constrained 1,remix-e52ac36c-7b48-4d06-b51c-c52301ee6d61,Untitled Stop,Yellow Route (Inbound),-86.45439424,42.11966974,50
